id,name,lat,lon,line1,stop1,line2,stop2,
place-alfcl,Alewife,42.395428,-71.142483,red,RALE,,
place-andrw,Andrew,42.330154,-71.057655,red,RAND,,
place-aport,Airport,42.374262,-71.030395,blue,BAIR,,
place-aqucl,Aquarium,42.359784,-71.051652,blue,BAQU,,
place-armnl,Arlington,42.351902,-71.070893,,,,
place-asmnl,Ashmont,42.284652,-71.064489,red,RASH,,
place-bbsta,Back Bay,42.34735,-71.075727,orange,OBAC,,
place-bmmnl,Beachmont,42.39754234,-70.99231944,blue,BBEA,,
place-bomnl,Bowdoin,42.361365,-71.062037,blue,BBOW,,
place-brdwy,Broadway,42.342622,-71.056967,red,RBRO,,
place-brmnl,Brigham Circle,42.334229,-71.104609,,,,
place-brntn,Braintree,42.2078543,-71.0011385,red,RBRA,,
place-bvmnl,Brookline Village,42.332774,-71.116296,,,,
place-ccmnl,Community College,42.373622,-71.069533,orange,OCOM,,
place-chmnl,Charles/MGH,42.361166,-71.070628,red,RMGH,,
place-chncl,Chinatown,42.352547,-71.062752,orange,OCH,,
place-clmnl,Cleveland Circle,42.336142,-71.149326,,,,
place-cntsq,Central Square,42.365486,-71.103802,red,RCEN,,
place-coecl,Copley,42.349974,-71.077447,,,,
place-davis,Davis,42.39674,-71.121815,red,RDAV,,
place-dwnxg,Downtown Crossing,42.355518,-71.060225,red,RDTC,orange,ODT
place-fldcr,Fields Corner,42.300093,-71.061667,red,RFIE,,
place-forhl,Forest Hills,42.300523,-71.113686,orange,OFOR,,
place-gover,Government Center,42.359705,-71.059215,blue,BGOV,,
place-grnst,Green St.,42.310525,-71.107414,orange,OGRE,,
place-haecl,Haymarket,42.363021,-71.05829,orange,OHAY,,
place-harsq,Harvard Square,42.373362,-71.118956,red,RHAR,,
place-hsmnl,Heath St.,42.328681,-71.110559,,,,
place-hymnl,Hynes Convention Center,42.347888,-71.087903,,,,
place-jaksn,Jackson Square,42.323132,-71.099592,orange,OJAC,,
place-jfkred,JFK/UMass,42.320685,-71.052391,red,RJFK,,
place-kencl,Kenmore,42.348949,-71.095169,,,,
place-knncl,Kendall/MIT,42.36249079,-71.08617653,red,RKEN,,
place-lake,Boston College,42.340081,-71.166769,,,,
place-lech,Lechmere,42.370772,-71.076536,,,,
place-masta,Massachusetts Ave.,42.341512,-71.083423,orange,OMAS,,
place-matt,Mattapan,42.267762,-71.092241,mattapan,,,
place-mlmnl,Malden Center,42.426632,-71.07411,orange,OMAL,,
place-mvbcl,Maverick,42.36911856,-71.03952958,blue,BMAV,,
place-nemnl,Tufts Medical Center,42.349662,-71.063917,orange,ONEM,,
place-north,North Station,42.365577,-71.06129,orange,ONST,,
place-nqncy,North Quincy,42.275275,-71.029583,red,RNQU,,
place-ogmnl,Oak Grove,42.43668,-71.071097,orange,OOAK,,
place-orhte,Orient Heights,42.386867,-71.004736,blue,BORH,,
place-pktrm,Park St.,42.35639457,-71.0624242,red,RPRK,,
place-portr,Porter Square,42.3884,-71.119149,red,RPOR,,
place-prmnl,Prudential,42.34557,-71.081696,,,,
place-qamnl,Quincy Adams,42.233391,-71.007153,red,RQUA,,
place-qnctr,Quincy Center,42.251809,-71.005409,red,RQUC,,
place-rbmnl,Revere Beach,42.40784254,-70.99253321,blue,BREV,,
place-rcmnl,Roxbury Crossing,42.331397,-71.095451,orange,OROX,,
place-river,Riverside,42.337059,-71.251742,,,,
place-rsmnl,Reservoir,42.335027,-71.148952,,,,
place-rugg,Ruggles,42.336377,-71.088961,orange,ORUG,,
place-sbmnl,Stony Brook,42.317062,-71.104248,orange,OSTO,,
place-sdmnl,Suffolk Downs,42.39050067,-70.99712259,blue,BSUF,,
place-shmnl,Savin Hill,42.31129,-71.053331,red,RSAV,,
place-smmnl,Shawmut,42.29312583,-71.06573796,red,RSHA,,
place-spmnl,Science Park,42.366664,-71.067666,,,,
place-sstat,South Station,42.352271,-71.055242,red,RSOU,,
place-state,State St.,42.358978,-71.057598,orange,OST,blue,BSTA
place-sull,Sullivan,42.383975,-71.076994,orange,OSUL,,
place-symcl,Symphony,42.342687,-71.085056,,,,
place-welln,Wellington,42.40237,-71.077082,orange,OWEL,,
place-wimnl,Wood Island,42.3796403,-71.02286539,blue,BWOO,,
place-wlsta,Wollaston,42.2665139,-71.0203369,red,RWOL,,
place-wondl,Wonderland,42.41342,-70.991648,blue,BWON,,